[{"name": "Baker Street Underground Station", "lat": 51.522883, "lon": -0.15713, "lines": ["bakerloo", "circle", "hammersmith-city", "jubilee", "metropolitan"]}, {"name": "Charing Cross Underground Station", "lat": 51.50741, "lon": -0.127277, "lines": ["bakerloo", "northern"]}, {"name": "Elephant & Castle Underground Station", "lat": 51.494536, "lon": -0.100606, "lines": ["bakerloo", "northern"]}, {"name": "Embankment Underground Station", "lat": 51.507058, "lon": -0.122666, "lines": ["bakerloo", "circle", "district", "northern"]}, {"name": "Edgware Road (Bakerloo) Underground Station", "lat": 51.520299, "lon": -0.17015, "lines": ["bakerloo"]}, {"name": "Harrow & Wealdstone Underground Station", "lat": 51.592268, "lon": -0.335217, "lines": ["bakerloo"]}, {"name": "Harlesden Underground Station", "lat": 51.53631, "lon": -0.257883, "lines": ["bakerloo"]}, {"name": "Kenton Underground Station", "lat": 51.581756, "lon": -0.31691, "lines": ["bakerloo"]}, {"name": "Kilburn Park Underground Station", "lat": 51.534979, "lon": -0.194232, "lines": ["bakerloo"]}, {"name": "Kensal Green Underground Station", "lat": 51.530539, "lon": -0.225016, "lines": ["bakerloo"]}, {"name": "Lambeth North Underground Station", "lat": 51.498808, "lon": -0.112315, "lines": ["bakerloo"]}, {"name": "Maida Vale Underground Station", "lat": 51.529777, "lon": -0.185758, "lines": ["bakerloo"]}, {"name": "Marylebone Underground Station", "lat": 51.522322, "lon": -0.163207, "lines": ["bakerloo"]}, {"name": "North Wembley Underground Station", "lat": 51.562551, "lon": -0.304, "lines": ["bakerloo"]}, {"name": "Oxford Circus Underground Station", "lat": 51.515224, "lon": -0.141903, "lines": ["bakerloo", "central", "victoria"]}, {"name": "Paddington Underground Station", "lat": 51.516581, "lon": -0.175689, "lines": ["bakerloo", "circle", "district"]}, {"name": "Piccadilly Circus Underground Station", "lat": 51.51005, "lon": -0.133798, "lines": ["bakerloo", "piccadilly"]}, {"name": "Queen's Park Underground Station", "lat": 51.534158, "lon": -0.204574, "lines": ["bakerloo"]}, {"name": "Regent's Park Underground Station", "lat": 51.523344, "lon": -0.146444, "lines": ["bakerloo"]}, {"name": "Stonebridge Park Underground Station", "lat": 51.543959, "lon": -0.275892, "lines": ["bakerloo"]}, {"name": "South Kenton Underground Station", "lat": 51.570232, "lon": -0.308433, "lines": ["bakerloo"]}, {"name": "Willesden Junction Underground Station", "lat": 51.532259, "lon": -0.244283, "lines": ["bakerloo"]}, {"name": "Warwick Avenue Underground Station", "lat": 51.523263, "lon": -0.183783, "lines": ["bakerloo"]}, {"name": "Waterloo Underground Station", "lat": 51.503299, "lon": -0.11478, "lines": ["bakerloo", "jubilee", "northern", "waterloo-city"]}, {"name": "Wembley Central Underground Station", "lat": 51.552304, "lon": -0.296852, "lines": ["bakerloo"]}, {"name": "Barkingside Underground Station", "lat": 51.585689, "lon": 0.088585, "lines": ["central"]}, {"name": "Buckhurst Hill Underground Station", "lat": 51.626605, "lon": 0.046757, "lines": ["central"]}, {"name": "Bethnal Green Underground Station", "lat": 51.527222, "lon": -0.055506, "lines": ["central"]}, {"name": "Bond Street Underground Station", "lat": 51.514304, "lon": -0.149723, "lines": ["central", "jubilee"]}, {"name": "Bank Underground Station", "lat": 51.513335, "lon": -0.088712, "lines": ["central", "northern", "waterloo-city"]}, {"name": "Chancery Lane Underground Station", "lat": 51.518247, "lon": -0.111583, "lines": ["central"]}, {"name": "Chigwell Underground Station", "lat": 51.617916, "lon": 0.075041, "lines": ["central"]}, {"name": "Debden Underground Station", "lat": 51.645386, "lon": 0.083782, "lines": ["central"]}, {"name": "East Acton Underground Station", "lat": 51.516612, "lon": -0.247248, "lines": ["central"]}, {"name": "Ealing Broadway Underground Station", "lat": 51.515017, "lon": -0.301457, "lines": ["central", "district"]}, {"name": "Epping Underground Station", "lat": 51.69368, "lon": 0.113767, "lines": ["central"]}, {"name": "Fairlop Underground Station", "lat": 51.595618, "lon": 0.091004, "lines": ["central"]}, {"name": "Greenford Underground Station", "lat": 51.542424, "lon": -0.34605, "lines": ["central"]}, {"name": "Grange Hill Underground Station", "lat": 51.613378, "lon": 0.092066, "lines": ["central"]}, {"name": "Gants Hill Underground Station", "lat": 51.576544, "lon": 0.066185, "lines": ["central"]}, {"name": "Holborn Underground Station", "lat": 51.51758, "lon": -0.120475, "lines": ["central", "piccadilly"]}, {"name": "Hanger Lane Underground Station", "lat": 51.530177, "lon": -0.292704, "lines": ["central"]}, {"name": "Hainault Underground Station", "lat": 51.603659, "lon": 0.093482, "lines": ["central"]}, {"name": "Holland Park Underground Station", "lat": 51.507143, "lon": -0.205679, "lines": ["central"]}, {"name": "Loughton Underground Station", "lat": 51.641443, "lon": 0.055476, "lines": ["central"]}, {"name": "Lancaster Gate Underground Station", "lat": 51.511723, "lon": -0.175494, "lines": ["central"]}, {"name": "Liverpool Street Underground Station", "lat": 51.517372, "lon": -0.083182, "lines": ["central", "circle", "hammersmith-city", "metropolitan"]}, {"name": "Leyton Underground Station", "lat": 51.556589, "lon": -0.005523, "lines": ["central"]}, {"name": "Leytonstone Underground Station", "lat": 51.568324, "lon": 0.008194, "lines": ["central"]}, {"name": "Marble Arch Underground Station", "lat": 51.513424, "lon": -0.158953, "lines": ["central"]}, {"name": "Mile End Underground Station", "lat": 51.525122, "lon": -0.03364, "lines": ["central", "district", "hammersmith-city"]}, {"name": "North Acton Underground Station", "lat": 51.523524, "lon": -0.259755, "lines": ["central"]}, {"name": "Newbury Park Underground Station", "lat": 51.575726, "lon": 0.090004, "lines": ["central"]}, {"name": "Notting Hill Gate Underground Station", "lat": 51.509128, "lon": -0.196104, "lines": ["central", "circle", "district"]}, {"name": "Northolt Underground Station", "lat": 51.548236, "lon": -0.368699, "lines": ["central"]}, {"name": "Perivale Underground Station", "lat": 51.536717, "lon": -0.323446, "lines": ["central"]}, {"name": "Queensway Underground Station", "lat": 51.510312, "lon": -0.187152, "lines": ["central"]}, {"name": "Redbridge Underground Station", "lat": 51.576243, "lon": 0.04536, "lines": ["central"]}, {"name": "Ruislip Gardens Underground Station", "lat": 51.560736, "lon": -0.41071, "lines": ["central"]}, {"name": "Roding Valley Underground Station", "lat": 51.617199, "lon": 0.043647, "lines": ["central"]}, {"name": "Shepherd's Bush (Central) Underground Station", "lat": 51.504376, "lon": -0.218813, "lines": ["central"]}, {"name": "Snaresbrook Underground Station", "lat": 51.580678, "lon": 0.02144, "lines": ["central"]}, {"name": "St. Paul's Underground Station", "lat": 51.514936, "lon": -0.097567, "lines": ["central"]}, {"name": "South Ruislip Underground Station", "lat": 51.556853, "lon": -0.398915, "lines": ["central"]}, {"name": "Stratford Underground Station", "lat": 51.541806, "lon": -0.003458, "lines": ["central", "jubilee"]}, {"name": "South Woodford Underground Station", "lat": 51.591907, "lon": 0.027338, "lines": ["central"]}, {"name": "Tottenham Court Road Underground Station", "lat": 51.516426, "lon": -0.13041, "lines": ["central", "northern"]}, {"name": "Theydon Bois Underground Station", "lat": 51.671759, "lon": 0.103085, "lines": ["central"]}, {"name": "White City Underground Station", "lat": 51.511959, "lon": -0.224297, "lines": ["central"]}, {"name": "Woodford Underground Station", "lat": 51.606899, "lon": 0.03397, "lines": ["central"]}, {"name": "West Ruislip Underground Station", "lat": 51.569688, "lon": -0.437886, "lines": ["central"]}, {"name": "Wanstead Underground Station", "lat": 51.575501, "lon": 0.028527, "lines": ["central"]}, {"name": "West Acton Underground Station", "lat": 51.518001, "lon": -0.28098, "lines": ["central"]}, {"name": "Aldgate Underground Station", "lat": 51.514246, "lon": -0.075689, "lines": ["circle", "metropolitan"]}, {"name": "Barbican Underground Station", "lat": 51.520275, "lon": -0.097993, "lines": ["circle", "hammersmith-city", "metropolitan"]}, {"name": "Blackfriars Underground Station", "lat": 51.511581, "lon": -0.103659, "lines": ["circle", "district"]}, {"name": "Bayswater Underground Station", "lat": 51.512284, "lon": -0.187938, "lines": ["circle", "district"]}, {"name": "Cannon Street Underground Station", "lat": 51.51151, "lon": -0.090432, "lines": ["circle", "district"]}, {"name": "Edgware Road (Circle Line) Underground Station", "lat": 51.519858, "lon": -0.167832, "lines": ["circle", "district", "hammersmith-city"]}, {"name": "Euston Square Underground Station", "lat": 51.525604, "lon": -0.135829, "lines": ["circle", "hammersmith-city", "metropolitan"]}, {"name": "Farringdon Underground Station", "lat": 51.520252, "lon": -0.104913, "lines": ["circle", "hammersmith-city", "metropolitan"]}, {"name": "Goldhawk Road Underground Station", "lat": 51.502005, "lon": -0.226715, "lines": ["circle", "hammersmith-city"]}, {"name": "Great Portland Street Underground Station", "lat": 51.52384, "lon": -0.144262, "lines": ["circle", "hammersmith-city", "metropolitan"]}, {"name": "Gloucester Road Underground Station", "lat": 51.494316, "lon": -0.182658, "lines": ["circle", "district", "piccadilly"]}, {"name": "Hammersmith (H&C Line) Underground Station", "lat": 51.49339, "lon": -0.22503, "lines": ["circle", "hammersmith-city"]}, {"name": "High Street Kensington Underground Station", "lat": 51.501055, "lon": -0.192792, "lines": ["circle", "district"]}, {"name": "King's Cross St. Pancras Underground Station", "lat": 51.530663, "lon": -0.123194, "lines": ["circle", "hammersmith-city", "metropolitan", "northern", "piccadilly", "victoria"]}, {"name": "Ladbroke Grove Underground Station", "lat": 51.517449, "lon": -0.210391, "lines": ["circle", "hammersmith-city"]}, {"name": "Latimer Road Underground Station", "lat": 51.513389, "lon": -0.217799, "lines": ["circle", "hammersmith-city"]}, {"name": "Moorgate Underground Station", "lat": 51.518176, "lon": -0.088322, "lines": ["circle", "hammersmith-city", "metropolitan", "northern"]}, {"name": "Monument Underground Station", "lat": 51.5107, "lon": -0.085969, "lines": ["circle", "district"]}, {"name": "Mansion House Underground Station", "lat": 51.512117, "lon": -0.094009, "lines": ["circle", "district"]}, {"name": "Paddington (H&C Line)-Underground", "lat": 51.518187, "lon": -0.178306, "lines": ["circle", "hammersmith-city"]}, {"name": "Royal Oak Underground Station", "lat": 51.519113, "lon": -0.188748, "lines": ["circle", "hammersmith-city"]}, {"name": "Shepherd's Bush Market Underground Station", "lat": 51.505579, "lon": -0.226375, "lines": ["circle", "hammersmith-city"]}, {"name": "St. James's Park Underground Station", "lat": 51.499544, "lon": -0.133608, "lines": ["circle", "district"]}, {"name": "South Kensington Underground Station", "lat": 51.494094, "lon": -0.174138, "lines": ["circle", "district", "piccadilly"]}, {"name": "Sloane Square Underground Station", "lat": 51.49227, "lon": -0.156377, "lines": ["circle", "district"]}, {"name": "Temple Underground Station", "lat": 51.511006, "lon": -0.11426, "lines": ["circle", "district"]}, {"name": "Tower Hill Underground Station", "lat": 51.509971, "lon": -0.076546, "lines": ["circle", "district"]}, {"name": "Victoria Underground Station", "lat": 51.496359, "lon": -0.143102, "lines": ["circle", "district", "victoria"]}, {"name": "Wood Lane Underground Station", "lat": 51.509669, "lon": -0.22453, "lines": ["circle", "hammersmith-city"]}, {"name": "Westminster Underground Station", "lat": 51.50132, "lon": -0.124861, "lines": ["circle", "district", "jubilee"]}, {"name": "Westbourne Park Underground Station", "lat": 51.52111, "lon": -0.201065, "lines": ["circle", "hammersmith-city"]}, {"name": "Acton Town Underground Station", "lat": 51.503057, "lon": -0.280462, "lines": ["district", "piccadilly"]}, {"name": "Aldgate East Underground Station", "lat": 51.515037, "lon": -0.072384, "lines": ["district", "hammersmith-city"]}, {"name": "Bromley-by-Bow Underground Station", "lat": 51.524839, "lon": -0.011538, "lines": ["district", "hammersmith-city"]}, {"name": "Becontree Underground Station", "lat": 51.540331, "lon": 0.127016, "lines": ["district"]}, {"name": "Barking Underground Station", "lat": 51.539321, "lon": 0.081053, "lines": ["district", "hammersmith-city"]}, {"name": "Barons Court Underground Station", "lat": 51.490311, "lon": -0.213427, "lines": ["district", "piccadilly"]}, {"name": "Bow Road Underground Station", "lat": 51.52694, "lon": -0.025128, "lines": ["district", "hammersmith-city"]}, {"name": "Chiswick Park Underground Station", "lat": 51.494627, "lon": -0.267972, "lines": ["district"]}, {"name": "Dagenham East Underground Station", "lat": 51.544096, "lon": 0.166017, "lines": ["district"]}, {"name": "Dagenham Heathway Underground Station", "lat": 51.541639, "lon": 0.147527, "lines": ["district"]}, {"name": "Ealing Common Underground Station", "lat": 51.51014, "lon": -0.288265, "lines": ["district", "piccadilly"]}, {"name": "Earl's Court Underground Station", "lat": 51.492063, "lon": -0.193378, "lines": ["district", "piccadilly"]}, {"name": "East Ham Underground Station", "lat": 51.538948, "lon": 0.051186, "lines": ["district", "hammersmith-city"]}, {"name": "Elm Park Underground Station", "lat": 51.549775, "lon": 0.19864, "lines": ["district"]}, {"name": "East Putney Underground Station", "lat": 51.459205, "lon": -0.211, "lines": ["district"]}, {"name": "Fulham Broadway Underground Station", "lat": 51.480081, "lon": -0.195422, "lines": ["district"]}, {"name": "Gunnersbury Underground Station", "lat": 51.491803, "lon": -0.275267, "lines": ["district"]}, {"name": "Hornchurch Underground Station", "lat": 51.554093, "lon": 0.219116, "lines": ["district"]}, {"name": "Hammersmith (Dist&Picc Line) Underground Station", "lat": 51.4923, "lon": -0.22362, "lines": ["district", "piccadilly"]}, {"name": "Kensington (Olympia) Underground Station", "lat": 51.497624, "lon": -0.210015, "lines": ["district"]}, {"name": "Kew Gardens Underground Station", "lat": 51.477058, "lon": -0.285241, "lines": ["district"]}, {"name": "Plaistow Underground Station", "lat": 51.531341, "lon": 0.017451, "lines": ["district", "hammersmith-city"]}, {"name": "Parsons Green Underground Station", "lat": 51.475277, "lon": -0.20117, "lines": ["district"]}, {"name": "Putney Bridge Underground Station", "lat": 51.468262, "lon": -0.208731, "lines": ["district"]}, {"name": "Richmond Underground Station", "lat": 51.463237, "lon": -0.301336, "lines": ["district"]}, {"name": "Ravenscourt Park Underground Station", "lat": 51.494122, "lon": -0.235881, "lines": ["district"]}, {"name": "Stamford Brook Underground Station", "lat": 51.494917, "lon": -0.245704, "lines": ["district"]}, {"name": "Southfields Underground Station", "lat": 51.445073, "lon": -0.206602, "lines": ["district"]}, {"name": "Stepney Green Underground Station", "lat": 51.521858, "lon": -0.046596, "lines": ["district", "hammersmith-city"]}, {"name": "Turnham Green Underground Station", "lat": 51.495148, "lon": -0.254555, "lines": ["district", "piccadilly"]}, {"name": "Upminster Bridge Underground Station", "lat": 51.55856, "lon": 0.235809, "lines": ["district"]}, {"name": "Upton Park Underground Station", "lat": 51.53534, "lon": 0.035263, "lines": ["district", "hammersmith-city"]}, {"name": "Upminster Underground Station", "lat": 51.559063, "lon": 0.250882, "lines": ["district"]}, {"name": "Upney Underground Station", "lat": 51.538372, "lon": 0.10153, "lines": ["district"]}, {"name": "West Brompton Underground Station", "lat": 51.487268, "lon": -0.195599, "lines": ["district"]}, {"name": "West Ham Underground Station", "lat": 51.528136, "lon": 0.005055, "lines": ["district", "hammersmith-city", "jubilee"]}, {"name": "Wimbledon Underground Station", "lat": 51.421207, "lon": -0.206573, "lines": ["district"]}, {"name": "Wimbledon Park Underground Station", "lat": 51.434573, "lon": -0.199719, "lines": ["district"]}, {"name": "West Kensington Underground Station", "lat": 51.490459, "lon": -0.206636, "lines": ["district"]}, {"name": "Whitechapel Underground Station", "lat": 51.519518, "lon": -0.059971, "lines": ["district", "hammersmith-city"]}, {"name": "Bermondsey Underground Station", "lat": 51.49775, "lon": -0.063993, "lines": ["jubilee"]}, {"name": "Canning Town Underground Station", "lat": 51.513584, "lon": 0.008322, "lines": ["jubilee"]}, {"name": "Canons Park Underground Station", "lat": 51.607701, "lon": -0.294693, "lines": ["jubilee"]}, {"name": "Canada Water Underground Station", "lat": 51.497931, "lon": -0.049405, "lines": ["jubilee"]}, {"name": "Canary Wharf Underground Station", "lat": 51.503488, "lon": -0.018246, "lines": ["jubilee"]}, {"name": "Dollis Hill Underground Station", "lat": 51.551955, "lon": -0.239068, "lines": ["jubilee"]}, {"name": "Finchley Road Underground Station", "lat": 51.546825, "lon": -0.179845, "lines": ["jubilee", "metropolitan"]}, {"name": "Green Park Underground Station", "lat": 51.506947, "lon": -0.142787, "lines": ["jubilee", "piccadilly", "victoria"]}, {"name": "Kilburn Underground Station", "lat": 51.547183, "lon": -0.204248, "lines": ["jubilee"]}, {"name": "Kingsbury Underground Station", "lat": 51.584845, "lon": -0.27879, "lines": ["jubilee"]}, {"name": "London Bridge Underground Station", "lat": 51.505721, "lon": -0.088873, "lines": ["jubilee", "northern"]}, {"name": "Neasden Underground Station", "lat": 51.553986, "lon": -0.249837, "lines": ["jubilee"]}, {"name": "North Greenwich Underground Station", "lat": 51.50047, "lon": 0.004287, "lines": ["jubilee"]}, {"name": "Queensbury Underground Station", "lat": 51.594188, "lon": -0.286219, "lines": ["jubilee"]}, {"name": "St. John's Wood Underground Station", "lat": 51.534521, "lon": -0.173948, "lines": ["jubilee"]}, {"name": "Stanmore Underground Station", "lat": 51.619839, "lon": -0.303266, "lines": ["jubilee"]}, {"name": "Swiss Cottage Underground Station", "lat": 51.543681, "lon": -0.174894, "lines": ["jubilee"]}, {"name": "Southwark Underground Station", "lat": 51.50427, "lon": -0.105331, "lines": ["jubilee"]}, {"name": "West Hampstead Underground Station", "lat": 51.546638, "lon": -0.191059, "lines": ["jubilee"]}, {"name": "Willesden Green Underground Station", "lat": 51.549146, "lon": -0.221537, "lines": ["jubilee", "metropolitan"]}, {"name": "Wembley Park Underground Station", "lat": 51.563198, "lon": -0.279262, "lines": ["jubilee", "metropolitan"]}, {"name": "Amersham Underground Station", "lat": 51.674126, "lon": -0.607714, "lines": ["metropolitan"]}, {"name": "Chalfont & Latimer Underground Station", "lat": 51.667985, "lon": -0.560689, "lines": ["metropolitan"]}, {"name": "Chesham Underground Station", "lat": 51.705208, "lon": -0.611247, "lines": ["metropolitan"]}, {"name": "Croxley Underground Station", "lat": 51.647044, "lon": -0.441718, "lines": ["metropolitan"]}, {"name": "Chorleywood Underground Station", "lat": 51.654358, "lon": -0.518461, "lines": ["metropolitan"]}, {"name": "Eastcote Underground Station", "lat": 51.576506, "lon": -0.397373, "lines": ["metropolitan", "piccadilly"]}, {"name": "Hillingdon Underground Station", "lat": 51.553715, "lon": -0.449828, "lines": ["metropolitan", "piccadilly"]}, {"name": "Harrow-on-the-Hill Underground Station", "lat": 51.579195, "lon": -0.337225, "lines": ["metropolitan"]}, {"name": "Ickenham Underground Station", "lat": 51.56177, "lon": -0.442225, "lines": ["metropolitan", "piccadilly"]}, {"name": "Moor Park Underground Station", "lat": 51.629845, "lon": -0.432454, "lines": ["metropolitan"]}, {"name": "North Harrow Underground Station", "lat": 51.584872, "lon": -0.362408, "lines": ["metropolitan"]}, {"name": "Northwick Park Underground Station", "lat": 51.578481, "lon": -0.318056, "lines": ["metropolitan"]}, {"name": "Northwood Underground Station", "lat": 51.611053, "lon": -0.423829, "lines": ["metropolitan"]}, {"name": "Northwood Hills Underground Station", "lat": 51.600572, "lon": -0.409464, "lines": ["metropolitan"]}, {"name": "Pinner Underground Station", "lat": 51.592901, "lon": -0.381161, "lines": ["metropolitan"]}, {"name": "Preston Road Underground Station", "lat": 51.571972, "lon": -0.295107, "lines": ["metropolitan"]}, {"name": "Rickmansworth Underground Station", "lat": 51.640207, "lon": -0.473703, "lines": ["metropolitan"]}, {"name": "Ruislip Manor Underground Station", "lat": 51.573202, "lon": -0.412973, "lines": ["metropolitan", "piccadilly"]}, {"name": "Ruislip Underground Station", "lat": 51.571354, "lon": -0.421898, "lines": ["metropolitan", "piccadilly"]}, {"name": "Rayners Lane Underground Station", "lat": 51.575147, "lon": -0.371127, "lines": ["metropolitan", "piccadilly"]}, {"name": "Uxbridge Underground Station", "lat": 51.546565, "lon": -0.477949, "lines": ["metropolitan", "piccadilly"]}, {"name": "Watford Underground Station", "lat": 51.657446, "lon": -0.417377, "lines": ["metropolitan"]}, {"name": "West Harrow Underground Station", "lat": 51.57971, "lon": -0.3534, "lines": ["metropolitan"]}, {"name": "Battersea Power Station Underground Station", "lat": 51.479932, "lon": -0.142142, "lines": ["northern"]}, {"name": "Archway Underground Station", "lat": 51.565478, "lon": -0.134819, "lines": ["northern"]}, {"name": "Angel Underground Station", "lat": 51.531788, "lon": -0.105919, "lines": ["northern"]}, {"name": "Balham Underground Station", "lat": 51.443288, "lon": -0.152997, "lines": ["northern"]}, {"name": "Borough Underground Station", "lat": 51.501199, "lon": -0.09337, "lines": ["northern"]}, {"name": "Burnt Oak Underground Station", "lat": 51.602774, "lon": -0.264048, "lines": ["northern"]}, {"name": "Brent Cross Underground Station", "lat": 51.57665, "lon": -0.213622, "lines": ["northern"]}, {"name": "Belsize Park Underground Station", "lat": 51.550311, "lon": -0.164648, "lines": ["northern"]}, {"name": "Chalk Farm Underground Station", "lat": 51.544118, "lon": -0.153388, "lines": ["northern"]}, {"name": "Colindale Underground Station", "lat": 51.595424, "lon": -0.249919, "lines": ["northern"]}, {"name": "Clapham Common Underground Station", "lat": 51.461742, "lon": -0.138317, "lines": ["northern"]}, {"name": "Clapham North Underground Station", "lat": 51.465135, "lon": -0.130016, "lines": ["northern"]}, {"name": "Clapham South Underground Station", "lat": 51.452654, "lon": -0.147582, "lines": ["northern"]}, {"name": "Colliers Wood Underground Station", "lat": 51.41816, "lon": -0.178086, "lines": ["northern"]}, {"name": "Camden Town Underground Station", "lat": 51.539292, "lon": -0.14274, "lines": ["northern"]}, {"name": "East Finchley Underground Station", "lat": 51.587131, "lon": -0.165012, "lines": ["northern"]}, {"name": "Edgware Underground Station", "lat": 51.613653, "lon": -0.274928, "lines": ["northern"]}, {"name": "Euston Underground Station", "lat": 51.527824, "lon": -0.131846, "lines": ["northern", "victoria"]}, {"name": "Finchley Central Underground Station", "lat": 51.600921, "lon": -0.192527, "lines": ["northern"]}, {"name": "Goodge Street Underground Station", "lat": 51.520599, "lon": -0.134361, "lines": ["northern"]}, {"name": "Golders Green Underground Station", "lat": 51.572259, "lon": -0.194039, "lines": ["northern"]}, {"name": "High Barnet Underground Station", "lat": 51.650541, "lon": -0.194298, "lines": ["northern"]}, {"name": "Hendon Central Underground Station", "lat": 51.583301, "lon": -0.226424, "lines": ["northern"]}, {"name": "Highgate Underground Station", "lat": 51.577532, "lon": -0.145857, "lines": ["northern"]}, {"name": "Hampstead Underground Station", "lat": 51.556239, "lon": -0.177464, "lines": ["northern"]}, {"name": "Kennington Underground Station", "lat": 51.488337, "lon": -0.105963, "lines": ["northern"]}, {"name": "Kentish Town Underground Station", "lat": 51.550312, "lon": -0.140733, "lines": ["northern"]}, {"name": "Leicester Square Underground Station", "lat": 51.511386, "lon": -0.128426, "lines": ["northern", "piccadilly"]}, {"name": "Morden Underground Station", "lat": 51.402142, "lon": -0.194839, "lines": ["northern"]}, {"name": "Mill Hill East Underground Station", "lat": 51.608229, "lon": -0.209986, "lines": ["northern"]}, {"name": "Mornington Crescent Underground Station", "lat": 51.534679, "lon": -0.138789, "lines": ["northern"]}, {"name": "Old Street Underground Station", "lat": 51.525864, "lon": -0.08777, "lines": ["northern"]}, {"name": "Oval Underground Station", "lat": 51.48185, "lon": -0.112439, "lines": ["northern"]}, {"name": "Stockwell Underground Station", "lat": 51.472184, "lon": -0.122644, "lines": ["northern", "victoria"]}, {"name": "South Wimbledon Underground Station", "lat": 51.415309, "lon": -0.192005, "lines": ["northern"]}, {"name": "Totteridge & Whetstone Underground Station", "lat": 51.630597, "lon": -0.17921, "lines": ["northern"]}, {"name": "Tooting Bec Underground Station", "lat": 51.435678, "lon": -0.159736, "lines": ["northern"]}, {"name": "Tooting Broadway Underground Station", "lat": 51.42763, "lon": -0.168374, "lines": ["northern"]}, {"name": "Tufnell Park Underground Station", "lat": 51.556822, "lon": -0.138433, "lines": ["northern"]}, {"name": "West Finchley Underground Station", "lat": 51.609426, "lon": -0.188362, "lines": ["northern"]}, {"name": "Woodside Park Underground Station", "lat": 51.618014, "lon": -0.18542, "lines": ["northern"]}, {"name": "Warren Street Underground Station", "lat": 51.524951, "lon": -0.138321, "lines": ["northern", "victoria"]}, {"name": "Nine Elms Underground Station", "lat": 51.479912, "lon": -0.128476, "lines": ["northern"]}, {"name": "Alperton Underground Station", "lat": 51.540627, "lon": -0.29961, "lines": ["piccadilly"]}, {"name": "Arnos Grove Underground Station", "lat": 51.616446, "lon": -0.133062, "lines": ["piccadilly"]}, {"name": "Arsenal Underground Station", "lat": 51.558655, "lon": -0.107457, "lines": ["piccadilly"]}, {"name": "Bounds Green Underground Station", "lat": 51.607034, "lon": -0.124235, "lines": ["piccadilly"]}, {"name": "Boston Manor Underground Station", "lat": 51.495635, "lon": -0.324939, "lines": ["piccadilly"]}, {"name": "Caledonian Road Underground Station", "lat": 51.548519, "lon": -0.118493, "lines": ["piccadilly"]}, {"name": "Covent Garden Underground Station", "lat": 51.513093, "lon": -0.124436, "lines": ["piccadilly"]}, {"name": "Cockfosters Underground Station", "lat": 51.65152, "lon": -0.149171, "lines": ["piccadilly"]}, {"name": "Finsbury Park Underground Station", "lat": 51.564158, "lon": -0.106825, "lines": ["piccadilly", "victoria"]}, {"name": "Hatton Cross Underground Station", "lat": 51.466747, "lon": -0.423191, "lines": ["piccadilly"]}, {"name": "Hyde Park Corner Underground Station", "lat": 51.503035, "lon": -0.152441, "lines": ["piccadilly"]}, {"name": "Heathrow Terminal 4 Underground Station", "lat": 51.458524, "lon": -0.445771, "lines": ["piccadilly"]}, {"name": "Heathrow Terminal 5 Underground Station", "lat": 51.470052, "lon": -0.49056, "lines": ["piccadilly"]}, {"name": "Heathrow Terminals 2 & 3 Underground Station", "lat": 51.471235, "lon": -0.452265, "lines": ["piccadilly"]}, {"name": "Hounslow Central Underground Station", "lat": 51.471295, "lon": -0.366578, "lines": ["piccadilly"]}, {"name": "Hounslow East Underground Station", "lat": 51.473213, "lon": -0.356474, "lines": ["piccadilly"]}, {"name": "Hounslow West Underground Station", "lat": 51.473469, "lon": -0.386544, "lines": ["piccadilly"]}, {"name": "Holloway Road Underground Station", "lat": 51.552697, "lon": -0.113244, "lines": ["piccadilly"]}, {"name": "Knightsbridge Underground Station", "lat": 51.501669, "lon": -0.160508, "lines": ["piccadilly"]}, {"name": "Manor House Underground Station", "lat": 51.570738, "lon": -0.096118, "lines": ["piccadilly"]}, {"name": "North Ealing Underground Station", "lat": 51.517505, "lon": -0.288868, "lines": ["piccadilly"]}, {"name": "Northfields Underground Station", "lat": 51.499319, "lon": -0.314719, "lines": ["piccadilly"]}, {"name": "Oakwood Underground Station", "lat": 51.647726, "lon": -0.132182, "lines": ["piccadilly"]}, {"name": "Osterley Underground Station", "lat": 51.481274, "lon": -0.352224, "lines": ["piccadilly"]}, {"name": "Park Royal Underground Station", "lat": 51.527123, "lon": -0.284341, "lines": ["piccadilly"]}, {"name": "Russell Square Underground Station", "lat": 51.523073, "lon": -0.124285, "lines": ["piccadilly"]}, {"name": "South Ealing Underground Station", "lat": 51.501003, "lon": -0.307424, "lines": ["piccadilly"]}, {"name": "Southgate Underground Station", "lat": 51.632315, "lon": -0.127816, "lines": ["piccadilly"]}, {"name": "South Harrow Underground Station", "lat": 51.564888, "lon": -0.352492, "lines": ["piccadilly"]}, {"name": "Sudbury Hill Underground Station", "lat": 51.556946, "lon": -0.336435, "lines": ["piccadilly"]}, {"name": "Sudbury Town Underground Station", "lat": 51.550815, "lon": -0.315745, "lines": ["piccadilly"]}, {"name": "Turnpike Lane Underground Station", "lat": 51.590272, "lon": -0.102953, "lines": ["piccadilly"]}, {"name": "Wood Green Underground Station", "lat": 51.597479, "lon": -0.109886, "lines": ["piccadilly"]}, {"name": "Blackhorse Road Underground Station", "lat": 51.586919, "lon": -0.04115, "lines": ["victoria"]}, {"name": "Brixton Underground Station", "lat": 51.462618, "lon": -0.114888, "lines": ["victoria"]}, {"name": "Highbury & Islington Underground Station", "lat": 51.54635, "lon": -0.103324, "lines": ["victoria"]}, {"name": "Pimlico Underground Station", "lat": 51.489097, "lon": -0.133761, "lines": ["victoria"]}, {"name": "Seven Sisters Underground Station", "lat": 51.58333, "lon": -0.072584, "lines": ["victoria"]}, {"name": "Tottenham Hale Underground Station", "lat": 51.588108, "lon": -0.060241, "lines": ["victoria"]}, {"name": "Vauxhall Underground Station", "lat": 51.485743, "lon": -0.124204, "lines": ["victoria"]}, {"name": "Walthamstow Central Underground Station", "lat": 51.582965, "lon": -0.019885, "lines": ["victoria"]}, {"name": "Abbey Wood", "lat": 51.491284, "lon": 0.121087, "lines": ["elizabeth"]}, {"name": "Acton Main Line Rail Station", "lat": 51.51718, "lon": -0.266756, "lines": ["elizabeth"]}, {"name": "Burnham (Berks) Rail Station", "lat": 51.523506, "lon": -0.646374, "lines": ["elizabeth"]}, {"name": "Bond Street", "lat": 51.513895, "lon": -0.147246, "lines": ["elizabeth"]}, {"name": "Brentwood Rail Station", "lat": 51.613605, "lon": 0.299586, "lines": ["elizabeth"]}, {"name": "Canary Wharf", "lat": 51.506203, "lon": -0.018834, "lines": ["elizabeth"]}, {"name": "Chadwell Heath Rail Station", "lat": 51.568039, "lon": 0.128958, "lines": ["elizabeth"]}, {"name": "Ealing Broadway Rail Station", "lat": 51.514841, "lon": -0.301752, "lines": ["elizabeth"]}, {"name": "Farringdon", "lat": 51.520189, "lon": -0.104915, "lines": ["elizabeth"]}, {"name": "Forest Gate Rail Station", "lat": 51.549432, "lon": 0.024353, "lines": ["elizabeth"]}, {"name": "Gidea Park Rail Station", "lat": 51.581904, "lon": 0.205964, "lines": ["elizabeth"]}, {"name": "Goodmayes Rail Station", "lat": 51.565579, "lon": 0.110807, "lines": ["elizabeth"]}, {"name": "Hanwell Rail Station", "lat": 51.511835, "lon": -0.338583, "lines": ["elizabeth"]}, {"name": "Hayes & Harlington Rail Station", "lat": 51.503096, "lon": -0.420683, "lines": ["elizabeth"]}, {"name": "Harold Wood Rail Station", "lat": 51.592766, "lon": 0.233129, "lines": ["elizabeth"]}, {"name": "Heathrow Terminals 2 & 3 Rail Station", "lat": 51.47098, "lon": -0.45803, "lines": ["elizabeth"]}, {"name": "Heathrow Terminal 4 Rail Station", "lat": 51.458268, "lon": -0.445463, "lines": ["elizabeth"]}, {"name": "Heathrow Terminal 5 Rail Station", "lat": 51.470053, "lon": -0.490589, "lines": ["elizabeth"]}, {"name": "Ilford Rail Station", "lat": 51.559118, "lon": 0.06968, "lines": ["elizabeth"]}, {"name": "Iver Rail Station", "lat": 51.508503, "lon": -0.506726, "lines": ["elizabeth"]}, {"name": "Langley (Berks) Rail Station", "lat": 51.508062, "lon": -0.541756, "lines": ["elizabeth"]}, {"name": "London Liverpool Street Rail Station", "lat": 51.517991, "lon": -0.081426, "lines": ["elizabeth", "weaver"]}, {"name": "Liverpool Street", "lat": 51.517721, "lon": -0.082043, "lines": ["elizabeth"]}, {"name": "Manor Park Rail Station", "lat": 51.552477, "lon": 0.046342, "lines": ["elizabeth"]}, {"name": "Maidenhead Rail Station", "lat": 51.518669, "lon": -0.72266, "lines": ["elizabeth"]}, {"name": "Maryland Rail Station", "lat": 51.546081, "lon": 0.005815, "lines": ["elizabeth"]}, {"name": "Paddington", "lat": 51.516451, "lon": -0.177107, "lines": ["elizabeth"]}, {"name": "London Paddington Rail Station", "lat": 51.515996, "lon": -0.176174, "lines": ["elizabeth"]}, {"name": "Reading Rail Station", "lat": 51.458786, "lon": -0.971863, "lines": ["elizabeth"]}, {"name": "Romford Rail Station", "lat": 51.574829, "lon": 0.183237, "lines": ["elizabeth", "liberty"]}, {"name": "Shenfield Rail Station", "lat": 51.630877, "lon": 0.329851, "lines": ["elizabeth"]}, {"name": "Slough Rail Station", "lat": 51.51188, "lon": -0.59151, "lines": ["elizabeth"]}, {"name": "Stratford (London) Rail Station", "lat": 51.541895, "lon": -0.003397, "lines": ["elizabeth", "mildmay"]}, {"name": "Southall Rail Station", "lat": 51.505957, "lon": -0.37861, "lines": ["elizabeth"]}, {"name": "Seven Kings Rail Station", "lat": 51.564026, "lon": 0.0971, "lines": ["elizabeth"]}, {"name": "Taplow Rail Station", "lat": 51.523562, "lon": -0.68137, "lines": ["elizabeth"]}, {"name": "Tottenham Court Road", "lat": 51.515698, "lon": -0.13044, "lines": ["elizabeth"]}, {"name": "Twyford Rail Station", "lat": 51.475534, "lon": -0.863293, "lines": ["elizabeth"]}, {"name": "Whitechapel", "lat": 51.519632, "lon": -0.059837, "lines": ["elizabeth"]}, {"name": "West Drayton Rail Station", "lat": 51.510055, "lon": -0.472234, "lines": ["elizabeth"]}, {"name": "West Ealing Rail Station", "lat": 51.513506, "lon": -0.320133, "lines": ["elizabeth"]}, {"name": "Woolwich", "lat": 51.492168, "lon": 0.070593, "lines": ["elizabeth"]}, {"name": "Abbey Road DLR Station", "lat": 51.531926, "lon": 0.003737, "lines": ["dlr"]}, {"name": "All Saints DLR Station", "lat": 51.511, "lon": -0.013135, "lines": ["dlr"]}, {"name": "Beckton DLR Station", "lat": 51.514362, "lon": 0.061453, "lines": ["dlr"]}, {"name": "Blackwall DLR Station", "lat": 51.507991, "lon": -0.006969, "lines": ["dlr"]}, {"name": "Bank DLR Station", "lat": 51.513233, "lon": -0.088515, "lines": ["dlr"]}, {"name": "Bow Church DLR Station", "lat": 51.527858, "lon": -0.020936, "lines": ["dlr"]}, {"name": "Beckton Park DLR Station", "lat": 51.508793, "lon": 0.054932, "lines": ["dlr"]}, {"name": "Canary Wharf DLR Station", "lat": 51.504838, "lon": -0.020997, "lines": ["dlr"]}, {"name": "Canning Town DLR Station", "lat": 51.514127, "lon": 0.008101, "lines": ["dlr"]}, {"name": "Crossharbour DLR Station", "lat": 51.495728, "lon": -0.014606, "lines": ["dlr"]}, {"name": "Custom House (for ExCel) DLR Station", "lat": 51.509716, "lon": 0.026699, "lines": ["dlr"]}, {"name": "Cutty Sark (for Maritime Greenwich) DLR Station", "lat": 51.481671, "lon": -0.01081, "lines": ["dlr"]}, {"name": "Cyprus DLR Station", "lat": 51.508473, "lon": 0.063925, "lines": ["dlr"]}, {"name": "Deptford Bridge DLR Station", "lat": 51.474215, "lon": -0.022438, "lines": ["dlr"]}, {"name": "Devons Road DLR Station", "lat": 51.522667, "lon": -0.017615, "lines": ["dlr"]}, {"name": "East India DLR Station", "lat": 51.509359, "lon": -0.002326, "lines": ["dlr"]}, {"name": "Elverson Road DLR Station", "lat": 51.469074, "lon": -0.016728, "lines": ["dlr"]}, {"name": "Gallions Reach DLR Station", "lat": 51.508941, "lon": 0.071555, "lines": ["dlr"]}, {"name": "Greenwich DLR Station", "lat": 51.478087, "lon": -0.013673, "lines": ["dlr"]}, {"name": "Heron Quays DLR Station", "lat": 51.503379, "lon": -0.021421, "lines": ["dlr"]}, {"name": "Island Gardens DLR Station", "lat": 51.487811, "lon": -0.010139, "lines": ["dlr"]}, {"name": "King George V DLR Station", "lat": 51.502003, "lon": 0.062624, "lines": ["dlr"]}, {"name": "London City Airport DLR Station", "lat": 51.503416, "lon": 0.048739, "lines": ["dlr"]}, {"name": "Langdon Park DLR Station", "lat": 51.515172, "lon": -0.01415, "lines": ["dlr"]}, {"name": "Lewisham DLR Station", "lat": 51.464665, "lon": -0.012874, "lines": ["dlr"]}, {"name": "Limehouse DLR Station", "lat": 51.512393, "lon": -0.039809, "lines": ["dlr"]}, {"name": "Mudchute DLR Station", "lat": 51.490704, "lon": -0.014738, "lines": ["dlr"]}, {"name": "Pontoon Dock DLR Station", "lat": 51.502212, "lon": 0.032115, "lines": ["dlr"]}, {"name": "Poplar DLR Station", "lat": 51.507744, "lon": -0.017384, "lines": ["dlr"]}, {"name": "Prince Regent DLR Station", "lat": 51.509263, "lon": 0.034158, "lines": ["dlr"]}, {"name": "Pudding Mill Lane DLR Station", "lat": 51.534302, "lon": -0.012755, "lines": ["dlr"]}, {"name": "Royal Albert DLR Station", "lat": 51.508357, "lon": 0.045935, "lines": ["dlr"]}, {"name": "Royal Victoria DLR Station", "lat": 51.509336, "lon": 0.018497, "lines": ["dlr"]}, {"name": "Shadwell DLR Station", "lat": 51.511693, "lon": -0.056643, "lines": ["dlr"]}, {"name": "Stratford High Street DLR Station", "lat": 51.538196, "lon": -0.001078, "lines": ["dlr"]}, {"name": "Stratford International DLR Station", "lat": 51.545265, "lon": -0.009638, "lines": ["dlr"]}, {"name": "South Quay DLR Station", "lat": 51.50005, "lon": -0.015975, "lines": ["dlr"]}, {"name": "Stratford DLR Station", "lat": 51.541758, "lon": -0.003287, "lines": ["dlr"]}, {"name": "Star Lane DLR Station", "lat": 51.520786, "lon": 0.004156, "lines": ["dlr"]}, {"name": "Tower Gateway DLR Station", "lat": 51.510617, "lon": -0.074818, "lines": ["dlr"]}, {"name": "Westferry DLR Station", "lat": 51.509431, "lon": -0.02675, "lines": ["dlr"]}, {"name": "West Ham DLR Station", "lat": 51.527894, "lon": 0.004482, "lines": ["dlr"]}, {"name": "West India Quay DLR Station", "lat": 51.50703, "lon": -0.020311, "lines": ["dlr"]}, {"name": "Woolwich Arsenal DLR Station", "lat": 51.490009, "lon": 0.069127, "lines": ["dlr"]}, {"name": "West Silvertown DLR Station", "lat": 51.502838, "lon": 0.02246, "lines": ["dlr"]}, {"name": "Addiscombe", "lat": 51.379753, "lon": -0.073058, "lines": ["tram"]}, {"name": "Addington Village", "lat": 51.356599, "lon": -0.032607, "lines": ["tram"]}, {"name": "Ampere Way", "lat": 51.382238, "lon": -0.123654, "lines": ["tram"]}, {"name": "Arena", "lat": 51.391362, "lon": -0.058297, "lines": ["tram"]}, {"name": "Avenue Road", "lat": 51.407037, "lon": -0.049092, "lines": ["tram"]}, {"name": "Beddington Lane", "lat": 51.3893, "lon": -0.142409, "lines": ["tram"]}, {"name": "Beckenham Junction", "lat": 51.410952, "lon": -0.02619, "lines": ["tram"]}, {"name": "Belgrave Walk", "lat": 51.399722, "lon": -0.180256, "lines": ["tram"]}, {"name": "Birkbeck", "lat": 51.40405, "lon": -0.056063, "lines": ["tram"]}, {"name": "Blackhorse Lane", "lat": 51.384748, "lon": -0.070563, "lines": ["tram"]}, {"name": "Beckenham Road", "lat": 51.409639, "lon": -0.042855, "lines": ["tram"]}, {"name": "George Street", "lat": 51.373815, "lon": -0.098753, "lines": ["tram"]}, {"name": "Church Street", "lat": 51.373774, "lon": -0.103985, "lines": ["tram"]}, {"name": "Coombe Lane", "lat": 51.359875, "lon": -0.058623, "lines": ["tram"]}, {"name": "Centrale", "lat": 51.376229, "lon": -0.103424, "lines": ["tram"]}, {"name": "Dundonald Road", "lat": 51.417608, "lon": -0.207648, "lines": ["tram"]}, {"name": "East Croydon", "lat": 51.374854, "lon": -0.092417, "lines": ["tram"]}, {"name": "Elmers End", "lat": 51.39851, "lon": -0.049555, "lines": ["tram"]}, {"name": "Fieldway", "lat": 51.351305, "lon": -0.024245, "lines": ["tram"]}, {"name": "Gravel Hill", "lat": 51.354676, "lon": -0.042355, "lines": ["tram"]}, {"name": "Harrington Road", "lat": 51.399609, "lon": -0.060478, "lines": ["tram"]}, {"name": "King Henry's Drive", "lat": 51.34614, "lon": -0.020849, "lines": ["tram"]}, {"name": "Lebanon Road", "lat": 51.375075, "lon": -0.084418, "lines": ["tram"]}, {"name": "Lloyd Park", "lat": 51.364193, "lon": -0.082229, "lines": ["tram"]}, {"name": "Mitcham", "lat": 51.397787, "lon": -0.172585, "lines": ["tram"]}, {"name": "Morden Road", "lat": 51.40905, "lon": -0.192597, "lines": ["tram"]}, {"name": "Mitcham Junction", "lat": 51.392859, "lon": -0.158795, "lines": ["tram"]}, {"name": "Merton Park", "lat": 51.414797, "lon": -0.201431, "lines": ["tram"]}, {"name": "New Addington", "lat": 51.34313, "lon": -0.017805, "lines": ["tram"]}, {"name": "Phipps Bridge", "lat": 51.403979, "lon": -0.18164, "lines": ["tram"]}, {"name": "Reeves Corner", "lat": 51.37527, "lon": -0.10638, "lines": ["tram"]}, {"name": "Sandilands", "lat": 51.375006, "lon": -0.078027, "lines": ["tram"]}, {"name": "Therapia Lane", "lat": 51.385296, "lon": -0.128702, "lines": ["tram"]}, {"name": "Waddon Marsh", "lat": 51.37711, "lon": -0.117886, "lines": ["tram"]}, {"name": "Wandle Park", "lat": 51.373022, "lon": -0.113082, "lines": ["tram"]}, {"name": "West Croydon", "lat": 51.379083, "lon": -0.101984, "lines": ["tram"]}, {"name": "Wellesley Road", "lat": 51.375369, "lon": -0.097539, "lines": ["tram"]}, {"name": "Wimbledon", "lat": 51.421051, "lon": -0.205773, "lines": ["tram"]}, {"name": "Woodside", "lat": 51.38732, "lon": -0.064576, "lines": ["tram"]}, {"name": "Addiscombe Tram Stop", "lat": 51.37981, "lon": -0.073242, "lines": ["tram"]}, {"name": "Addington Village Tram Stop", "lat": 51.356241, "lon": -0.032694, "lines": ["tram"]}, {"name": "Ampere Way Tram Stop", "lat": 51.38222, "lon": -0.12386, "lines": ["tram"]}, {"name": "Arena Tram Stop", "lat": 51.391525, "lon": -0.058347, "lines": ["tram"]}, {"name": "Avenue Road Tram Stop", "lat": 51.4068, "lon": -0.049476, "lines": ["tram"]}, {"name": "Beddington Lane Tram Stop", "lat": 51.389242, "lon": -0.142167, "lines": ["tram"]}, {"name": "Beckenham Junction Tram Stop", "lat": 51.41073, "lon": -0.026401, "lines": ["tram"]}, {"name": "Belgrave Walk Tram Stop", "lat": 51.4011, "lon": -0.17774, "lines": ["tram"]}, {"name": "Birkbeck Tram Stop", "lat": 51.403767, "lon": -0.055787, "lines": ["tram"]}, {"name": "Blackhorse Lane Tram Stop", "lat": 51.384757, "lon": -0.070562, "lines": ["tram"]}, {"name": "Beckenham Road Tram Stop", "lat": 51.409532, "lon": -0.043421, "lines": ["tram"]}, {"name": "George Street Tram Stop", "lat": 51.373977, "lon": -0.098746, "lines": ["tram"]}, {"name": "Church Street Tram Stop", "lat": 51.373708, "lon": -0.104361, "lines": ["tram"]}, {"name": "Coombe Lane Tram Stop", "lat": 51.359791, "lon": -0.05956, "lines": ["tram"]}, {"name": "Centrale Tram Stop", "lat": 51.375769, "lon": -0.103917, "lines": ["tram"]}, {"name": "Dundonald Road Tram Stop", "lat": 51.417555, "lon": -0.207679, "lines": ["tram"]}, {"name": "East Croydon Tram Stop", "lat": 51.374863, "lon": -0.092416, "lines": ["tram"]}, {"name": "Elmers End Tram Stop", "lat": 51.398474, "lon": -0.049557, "lines": ["tram"]}, {"name": "Fieldway Tram Stop", "lat": 51.351305, "lon": -0.024245, "lines": ["tram"]}, {"name": "Gravel Hill Tram Stop", "lat": 51.354545, "lon": -0.04315, "lines": ["tram"]}, {"name": "Harrington Road Tram Stop", "lat": 51.399793, "lon": -0.060729, "lines": ["tram"]}, {"name": "King Henry's Drive Tram Stop", "lat": 51.345082, "lon": -0.019975, "lines": ["tram"]}, {"name": "Lebanon Road Tram Stop", "lat": 51.375201, "lon": -0.085002, "lines": ["tram"]}, {"name": "Lloyd Park Tram Stop", "lat": 51.364278, "lon": -0.080775, "lines": ["tram"]}, {"name": "Mitcham Tram Stop", "lat": 51.39749, "lon": -0.1709, "lines": ["tram"]}, {"name": "Morden Road Tram Stop", "lat": 51.408874, "lon": -0.192834, "lines": ["tram"]}, {"name": "Mitcham Junction Tram Stop", "lat": 51.392868, "lon": -0.158263, "lines": ["tram"]}, {"name": "Merton Park Tram Stop", "lat": 51.413589, "lon": -0.201219, "lines": ["tram"]}, {"name": "New Addington Tram Stop", "lat": 51.342593, "lon": -0.017412, "lines": ["tram"]}, {"name": "Phipps Bridge Tram Stop", "lat": 51.403979, "lon": -0.18164, "lines": ["tram"]}, {"name": "Reeves Corner Tram Stop", "lat": 51.375279, "lon": -0.106408, "lines": ["tram"]}, {"name": "Sandilands Tram Stop", "lat": 51.375024, "lon": -0.078041, "lines": ["tram"]}, {"name": "Therapia Lane Tram Stop", "lat": 51.385697, "lon": -0.129045, "lines": ["tram"]}, {"name": "Waddon Marsh Tram Stop", "lat": 51.377076, "lon": -0.118016, "lines": ["tram"]}, {"name": "Wandle Park Tram Stop", "lat": 51.373403, "lon": -0.113282, "lines": ["tram"]}, {"name": "West Croydon Tram Stop", "lat": 51.378971, "lon": -0.101701, "lines": ["tram"]}, {"name": "Wellesley Road Tram Stop", "lat": 51.37537, "lon": -0.097554, "lines": ["tram"]}, {"name": "Wimbledon Tram Stop", "lat": 51.421051, "lon": -0.205816, "lines": ["tram"]}, {"name": "Woodside Tram Stop", "lat": 51.3871, "lon": -0.065361, "lines": ["tram"]}, {"name": "Emerson Park Rail Station", "lat": 51.568642, "lon": 0.220113, "lines": ["liberty"]}, {"name": "Upminster Rail Station", "lat": 51.559018, "lon": 0.25088, "lines": ["liberty"]}, {"name": "Bushey Rail Station", "lat": 51.645691, "lon": -0.385612, "lines": ["lioness"]}, {"name": "Carpenders Park Rail Station", "lat": 51.628351, "lon": -0.385939, "lines": ["lioness"]}, {"name": "London Euston Rail Station", "lat": 51.528136, "lon": -0.133924, "lines": ["lioness"]}, {"name": "Harlesden Rail Station", "lat": 51.536289, "lon": -0.257667, "lines": ["lioness"]}, {"name": "Headstone Lane Rail Station", "lat": 51.602649, "lon": -0.35722, "lines": ["lioness"]}, {"name": "Harrow & Wealdstone Rail Station", "lat": 51.592169, "lon": -0.334571, "lines": ["lioness"]}, {"name": "Hatch End Rail Station", "lat": 51.609417, "lon": -0.368601, "lines": ["lioness"]}, {"name": "Kensal Green Rail Station", "lat": 51.53054, "lon": -0.225088, "lines": ["lioness"]}, {"name": "Kilburn High Road Rail Station", "lat": 51.537277, "lon": -0.192237, "lines": ["lioness"]}, {"name": "Kenton Rail Station", "lat": 51.581802, "lon": -0.316981, "lines": ["lioness"]}, {"name": "North Wembley Rail Station", "lat": 51.562596, "lon": -0.303984, "lines": ["lioness"]}, {"name": "Queens Park (London) Rail Station", "lat": 51.533966, "lon": -0.204985, "lines": ["lioness"]}, {"name": "South Hampstead Rail Station", "lat": 51.541432, "lon": -0.178878, "lines": ["lioness"]}, {"name": "South Kenton Rail Station", "lat": 51.570214, "lon": -0.308462, "lines": ["lioness"]}, {"name": "Stonebridge Park Rail Station", "lat": 51.544111, "lon": -0.275828, "lines": ["lioness"]}, {"name": "Watford High Street Rail Station", "lat": 51.652655, "lon": -0.391711, "lines": ["lioness"]}, {"name": "Watford Junction Rail Station", "lat": 51.663529, "lon": -0.396517, "lines": ["lioness"]}, {"name": "Willesden Junction Rail Station", "lat": 51.532497, "lon": -0.244548, "lines": ["lioness", "mildmay"]}, {"name": "Wembley Central Rail Station", "lat": 51.552325, "lon": -0.296433, "lines": ["lioness"]}, {"name": "Acton Central Rail Station", "lat": 51.508716, "lon": -0.262971, "lines": ["mildmay"]}, {"name": "Brondesbury Rail Station", "lat": 51.545166, "lon": -0.202309, "lines": ["mildmay"]}, {"name": "Brondesbury Park Rail Station", "lat": 51.540699, "lon": -0.210128, "lines": ["mildmay"]}, {"name": "Caledonian Road & Barnsbury Rail Station", "lat": 51.543041, "lon": -0.116729, "lines": ["mildmay"]}, {"name": "Clapham Junction Rail Station", "lat": 51.464187, "lon": -0.170221, "lines": ["mildmay", "windrush"]}, {"name": "Camden Road Rail Station", "lat": 51.541791, "lon": -0.138701, "lines": ["mildmay"]}, {"name": "Canonbury Rail Station", "lat": 51.548732, "lon": -0.092191, "lines": ["mildmay", "windrush"]}, {"name": "Imperial Wharf Rail Station", "lat": 51.474949, "lon": -0.182823, "lines": ["mildmay"]}, {"name": "Dalston Kingsland Rail Station", "lat": 51.548148, "lon": -0.075701, "lines": ["mildmay"]}, {"name": "Finchley Road & Frognal Rail Station", "lat": 51.550266, "lon": -0.183141, "lines": ["mildmay"]}, {"name": "Gunnersbury Rail Station", "lat": 51.491678, "lon": -0.275286, "lines": ["mildmay"]}, {"name": "Gospel Oak Rail Station", "lat": 51.555335, "lon": -0.15077, "lines": ["mildmay", "suffragette"]}, {"name": "Hackney Central Rail Station", "lat": 51.547105, "lon": -0.056058, "lines": ["mildmay"]}, {"name": "Hackney Wick Rail Station", "lat": 51.54341, "lon": -0.02492, "lines": ["mildmay"]}, {"name": "Highbury & Islington Rail Station", "lat": 51.546177, "lon": -0.103764, "lines": ["mildmay", "windrush"]}, {"name": "Hampstead Heath Rail Station", "lat": 51.55521, "lon": -0.165705, "lines": ["mildmay"]}, {"name": "Homerton Rail Station", "lat": 51.547012, "lon": -0.04236, "lines": ["mildmay"]}, {"name": "Kensington (Olympia) Rail Station", "lat": 51.497899, "lon": -0.210364, "lines": ["mildmay"]}, {"name": "Kensal Rise Rail Station", "lat": 51.534554, "lon": -0.219957, "lines": ["mildmay"]}, {"name": "Kew Gardens Rail Station", "lat": 51.477073, "lon": -0.285054, "lines": ["mildmay"]}, {"name": "Kentish Town West Rail Station", "lat": 51.546548, "lon": -0.146655, "lines": ["mildmay"]}, {"name": "Richmond (London) Rail Station", "lat": 51.463061, "lon": -0.301558, "lines": ["mildmay"]}, {"name": "South Acton Rail Station", "lat": 51.499695, "lon": -0.270157, "lines": ["mildmay"]}, {"name": "Shepherds Bush Rail Station", "lat": 51.505285, "lon": -0.217654, "lines": ["mildmay"]}, {"name": "West Brompton Rail Station", "lat": 51.487061, "lon": -0.195593, "lines": ["mildmay"]}, {"name": "West Hampstead Rail Station", "lat": 51.547468, "lon": -0.191185, "lines": ["mildmay"]}, {"name": "Barking Rail Station", "lat": 51.539495, "lon": 0.080903, "lines": ["suffragette"]}, {"name": "Blackhorse Road Rail Station", "lat": 51.586605, "lon": -0.041236, "lines": ["suffragette"]}, {"name": "Crouch Hill Rail Station", "lat": 51.571302, "lon": -0.117149, "lines": ["suffragette"]}, {"name": "Harringay Green Lanes Rail Station", "lat": 51.577182, "lon": -0.098144, "lines": ["suffragette"]}, {"name": "Leyton Midland Road Rail Station", "lat": 51.569725, "lon": -0.008051, "lines": ["suffragette"]}, {"name": "Leytonstone High Road Rail Station", "lat": 51.563554, "lon": 0.008416, "lines": ["suffragette"]}, {"name": "South Tottenham Rail Station", "lat": 51.580372, "lon": -0.072103, "lines": ["suffragette"]}, {"name": "Upper Holloway Rail Station", "lat": 51.563631, "lon": -0.129513, "lines": ["suffragette"]}, {"name": "Woodgrange Park Rail Station", "lat": 51.549264, "lon": 0.044423, "lines": ["suffragette"]}, {"name": "Walthamstow Queens Road Rail Station", "lat": 51.581503, "lon": -0.023846, "lines": ["suffragette"]}, {"name": "Wanstead Park Rail Station", "lat": 51.551693, "lon": 0.026213, "lines": ["suffragette"]}, {"name": "Bush Hill Park Rail Station", "lat": 51.641519, "lon": -0.069221, "lines": ["weaver"]}, {"name": "Bruce Grove Rail Station", "lat": 51.593959, "lon": -0.069867, "lines": ["weaver"]}, {"name": "Bethnal Green Rail Station", "lat": 51.523917, "lon": -0.059568, "lines": ["weaver"]}, {"name": "Cambridge Heath (London) Rail Station", "lat": 51.531973, "lon": -0.057279, "lines": ["weaver"]}, {"name": "Cheshunt Rail Station", "lat": 51.702876, "lon": -0.02396, "lines": ["weaver"]}, {"name": "Chingford Rail Station", "lat": 51.633087, "lon": 0.009897, "lines": ["weaver"]}, {"name": "Clapton Rail Station", "lat": 51.561644, "lon": -0.057025, "lines": ["weaver"]}, {"name": "Edmonton Green Rail Station", "lat": 51.624929, "lon": -0.061112, "lines": ["weaver"]}, {"name": "Enfield Town Rail Station", "lat": 51.652026, "lon": -0.079328, "lines": ["weaver"]}, {"name": "Hackney Downs Rail Station", "lat": 51.548757, "lon": -0.060819, "lines": ["weaver"]}, {"name": "Highams Park Rail Station", "lat": 51.60835, "lon": -0.000222, "lines": ["weaver"]}, {"name": "London Fields Rail Station", "lat": 51.541153, "lon": -0.057753, "lines": ["weaver"]}, {"name": "Rectory Road Rail Station", "lat": 51.558502, "lon": -0.068267, "lines": ["weaver"]}, {"name": "Southbury Rail Station", "lat": 51.648705, "lon": -0.052437, "lines": ["weaver"]}, {"name": "Seven Sisters Rail Station", "lat": 51.582268, "lon": -0.07527, "lines": ["weaver"]}, {"name": "Silver Street Rail Station", "lat": 51.614688, "lon": -0.06724, "lines": ["weaver"]}, {"name": "St James Street (London) Rail Station", "lat": 51.580981, "lon": -0.032918, "lines": ["weaver"]}, {"name": "Stoke Newington Rail Station", "lat": 51.565233, "lon": -0.072887, "lines": ["weaver"]}, {"name": "Stamford Hill Rail Station", "lat": 51.574467, "lon": -0.076682, "lines": ["weaver"]}, {"name": "Theobalds Grove Rail Station", "lat": 51.692457, "lon": -0.034831, "lines": ["weaver"]}, {"name": "Turkey Street Rail Station", "lat": 51.672628, "lon": -0.047217, "lines": ["weaver"]}, {"name": "Wood Street Rail Station", "lat": 51.58658, "lon": -0.002405, "lines": ["weaver"]}, {"name": "White Hart Lane Rail Station", "lat": 51.605037, "lon": -0.070914, "lines": ["weaver"]}, {"name": "Walthamstow Central Rail Station", "lat": 51.582919, "lon": -0.019815, "lines": ["weaver"]}, {"name": "Anerley Rail Station", "lat": 51.412153, "lon": -0.065886, "lines": ["windrush"]}, {"name": "Brockley Rail Station", "lat": 51.464649, "lon": -0.037537, "lines": ["windrush"]}, {"name": "Clapham High Street Rail Station", "lat": 51.465481, "lon": -0.132522, "lines": ["windrush"]}, {"name": "Canada Water Rail Station", "lat": 51.49799, "lon": -0.04972, "lines": ["windrush"]}, {"name": "Crystal Palace Rail Station", "lat": 51.418109, "lon": -0.07261, "lines": ["windrush"]}, {"name": "Dalston Junction Rail Station", "lat": 51.546116, "lon": -0.075137, "lines": ["windrush"]}, {"name": "Denmark Hill Rail Station", "lat": 51.468203, "lon": -0.089361, "lines": ["windrush"]}, {"name": "Forest Hill Rail Station", "lat": 51.43928, "lon": -0.053157, "lines": ["windrush"]}, {"name": "Haggerston Rail Station", "lat": 51.538705, "lon": -0.075666, "lines": ["windrush"]}, {"name": "Honor Oak Park Rail Station", "lat": 51.449989, "lon": -0.045505, "lines": ["windrush"]}, {"name": "Hoxton Rail Station", "lat": 51.531512, "lon": -0.075681, "lines": ["windrush"]}, {"name": "London Bridge Rail Station", "lat": 51.505019, "lon": -0.086092, "lines": ["windrush"]}, {"name": "New Cross Gate Rail Station", "lat": 51.475128, "lon": -0.040399, "lines": ["windrush"]}, {"name": "Norwood Junction Rail Station", "lat": 51.397019, "lon": -0.075221, "lines": ["windrush"]}, {"name": "New Cross ELL Rail Station", "lat": 51.476344, "lon": -0.032441, "lines": ["windrush"]}, {"name": "Queens Road Peckham Rail Station", "lat": 51.473566, "lon": -0.057313, "lines": ["windrush"]}, {"name": "Peckham Rye Rail Station", "lat": 51.470034, "lon": -0.069414, "lines": ["windrush"]}, {"name": "Penge West Rail Station", "lat": 51.417555, "lon": -0.06084, "lines": ["windrush"]}, {"name": "Rotherhithe Rail Station", "lat": 51.500817, "lon": -0.052048, "lines": ["windrush"]}, {"name": "Shadwell Rail Station", "lat": 51.511284, "lon": -0.056934, "lines": ["windrush"]}, {"name": "Shoreditch High Street Rail Station", "lat": 51.523375, "lon": -0.075246, "lines": ["windrush"]}, {"name": "Surrey Quays Rail Station", "lat": 51.493196, "lon": -0.047519, "lines": ["windrush"]}, {"name": "Sydenham Rail Station", "lat": 51.427248, "lon": -0.054244, "lines": ["windrush"]}, {"name": "Wapping Rail Station", "lat": 51.504388, "lon": -0.055931, "lines": ["windrush"]}, {"name": "Whitechapel Rail Station", "lat": 51.519469, "lon": -0.059757, "lines": ["windrush"]}, {"name": "West Croydon Rail Station", "lat": 51.378428, "lon": -0.102585, "lines": ["windrush"]}, {"name": "Wandsworth Road Rail Station", "lat": 51.470216, "lon": -0.13852, "lines": ["windrush"]}]