- num: 1
  name: "Markt & Nieuwe Kerk"
  lat: 52.0116
  lng: 4.3572
  duration: "20 min"
  major: true
  photo: "Delft_Markt_en_Stadhuis.jpg"
  wikipedia: "https://en.wikipedia.org/wiki/Nieuwe_Kerk,_Delft"
  website: "https://www.nieuwekerk-delft.nl"

- num: 2
  name: "Vermeer Centrum Delft"
  lat: 52.0133
  lng: 4.3548
  duration: "45 min"
  major: true
  photo: "Vermeer_centrum_Delft.jpg"
  wikipedia: "https://en.wikipedia.org/wiki/Johannes_Vermeer"
  website: "https://vermeerdelft.nl"

- num: 3
  name: "Hippolytusbuurt & Voldersgracht"
  lat: 52.0124
  lng: 4.3558
  duration: "25 min"
  major: false
  photo: "Voldersgracht_Delft.jpg"
  wikipedia: "https://en.wikipedia.org/wiki/Delft"
  website: "https://www.delft.nl"

- num: 4
  name: "Oude Kerk"
  lat: 52.0131
  lng: 4.3561
  duration: "20 min"
  major: true
  photo: "Delft_-_Oude_Kerk_01.jpg"
  wikipedia: "https://en.wikipedia.org/wiki/Oude_Kerk,_Delft"
  website: "https://www.oudekerk-delft.nl"

- num: 5
  name: "Museum Prinsenhof"
  lat: 52.0129
  lng: 4.3560
  duration: "60 min"
  major: true
  photo: "Museum_Prinsenhof_Delft.jpg"
  wikipedia: "https://en.wikipedia.org/wiki/Prinsenhof,_Delft"
  website: "https://www.prinsenhof-delft.nl"

- num: 6
  name: "Beestenmarkt"
  lat: 52.0105
  lng: 4.3585
  duration: "20 min"
  major: false
  photo: "Beestenmarkt_Delft.jpg"
  wikipedia: "https://en.wikipedia.org/wiki/Delft"
  website: "https://www.delft.nl"

- num: 7
  name: "Royal Delft Factory"
  lat: 51.9993
  lng: 4.3520
  duration: "60 min"
  major: true
  photo: "Royal_Delft_factory.jpg"
  wikipedia: "https://en.wikipedia.org/wiki/Delftware"
  website: "https://www.royaldelft.com"
